station,stationid,latitude,longitude
KCC스위첸아파트.한신아파트,211000062,37.4752667,126.7996667
KEB하나은행도당동지점,210000373,37.5166,126.7798167
KEB하나은행도당동지점,212000004,37.5168167,126.7797
KT부천지사,210000365,37.4868667,126.77525
KT부천지사,210000101,37.4869667,126.7762
KT부천지사사거리,210000003,37.4859333,126.7764667
KT부천지사사거리,210000013,37.48575,126.7767333
KT북부천지사.365안전교육장,210000351,37.5202167,126.7935667
KT북부천지사.365안전교육장,210000353,37.5200833,126.7928167
KT중동지사,210000551,37.5021833,126.7608
KT중동지사,210000525,37.5024667,126.7607
SB마트,210000433,37.48755,126.8062
SK뷰아파트,211000266,37.4787167,126.7998667
SK뷰아파트,211000238,37.47845,126.7994
e편한세상1.3차아파트,210000582,37.4897167,126.8145333
e편한세상1.3차아파트,210000584,37.48965,126.8147167
e편한세상1차아파트,210000593,37.4893667,126.8146833
e편한세상2차.예원아파트,210000599,37.4906667,126.8141
e편한세상2차.예원아파트,210000583,37.4905833,126.8142333
e편한세상4차아파트,210000589,37.48835,126.8153833
가구전시장,212000358,37.5242167,126.8235833
가구전시장,212000325,37.52435,126.8236833
가톨릭대학교,210000421,37.4858333,126.8046
가톨릭대학교입구.보람쉬움아파트,210000309,37.4836333,126.8049833
가톨릭대학교입구.보람쉬움아파트,210000036,37.4836333,126.8043833
가톨릭대학교정문,210000422,37.4855667,126.8048667
강남시장,210000273,37.50605,126.78015
강남시장,210000269,37.5059,126.7804
경기국제통상고.포도마을뉴서울.중앙공원,210000289,37.5009167,126.7621833
경기국제통상고.포도마을뉴서울.중앙공원,210000044,37.5010167,126.7626
경남아파트,210000552,37.4974,126.75435
경원여객차고지(경유),277102363,37.4828167,126.78305
계남고교,210000162,37.49485,126.7703333
계남고교,210000116,37.4953167,126.76965
계남고교,210000534,37.4947,126.77065
계남고교,210000129,37.4955833,126.7701333
계남중학교,210000127,37.49775,126.7731
계남중학교,210000118,37.4978,126.7745
계룡리슈빌,210000218,37.5036333,126.7699
계수농협,211000142,37.4658833,126.8102333
계수농협,211000030,37.4661167,126.8104167
고강1동주민센터.수주어린이공원,212000078,37.52965,126.8124667
고강1동주민센터.수주어린이공원,212000092,37.5298167,126.8124
고강공영차고지,212000379,37.5376167,126.8190167
고강공영차고지,212000380,37.5377667,126.8190333
고강공영차고지(경유),277102744,37.53675,126.8171667
고강동.국민은행,212000160,37.5270333,126.8162
고강동.국민은행,212000053,37.5270833,126.8159
고강동우체국,212000098,37.5265333,126.8170667
고강동우체국,212000071,37.5266,126.8172667
고강동철탑,212000400,37.5347333,126.8213
고강동철탑,212000401,37.5349667,126.8214
고강동철탑(시계지점),212000246,37.5343,126.8219833
고강동철탑(시계지점),212000244,37.5341667,126.8217667
고강선사유적공원앞,212000099,37.5248833,126.8158833
고강선사유적공원앞,212000070,37.5249667,126.8156333
고강수영장,212000361,37.5287667,126.8219333
고강수영장,212000328,37.5287333,126.8221
고강시장입구,212000190,37.5283667,126.8111167
고강시장입구,212000199,37.5282667,126.8113167
고강아파트,212000329,37.5304,126.8222167
고강아파트,212000362,37.5303833,126.8220167
고강차고지(경유),277102365,37.5360333,126.8215667
고개,210000428,37.4850167,126.8034333
공구상가.부천천문과학관,210000346,37.5082333,126.78535
공구상가.부천천문과학관,210000357,37.5089333,126.7855333
괴안동입구,211000131,37.481,126.8046833
괴안동입구,211000134,37.4807833,126.80545
괴안동입구.성심고가,211000122,37.48215,126.8049
괴안동입구.성심고가,211000119,37.48185,126.8053167
괴안동행정복지센터,211000156,37.4781667,126.8073333
괴안동행정복지센터,211000138,37.4782,126.8074667
괴안사거리.괴안우체국,211000161,37.47945,126.8068667
괴안사거리.괴안우체국,211000133,37.47935,126.8068
괴안사거리.삼오유치원,211000065,37.4792667,126.8074167
괴안사거리.삼오유치원,211000078,37.4790833,126.80765
구산사거리(경유),277103550,37.4841167,126.7534167
국립과학수사연구소,212000408,37.52385,126.8256833
국립과학수사연구소,212000372,37.5237,126.8257167
국민은행(마),210000415,37.4863833,126.8133833
국민은행(마),210000410,37.48655,126.8133167
군부대정문,212000427,37.5286,126.78985
군부대정문,212000428,37.5285167,126.7897667
그린타운.미리내마을,210000117,37.4983667,126.7698667
그린타운.미리내마을,210000128,37.4981333,126.77035
그린타운상가.무지개마을,210000052,37.4971667,126.76765
그린타운상가.무지개마을,210000220,37.4969667,126.7679
그린타운앞.유베이스,210000545,37.4964167,126.7760333
극동아파트,211000084,37.4781,126.7805667
극동아파트,211000058,37.4782,126.7803
극동아파트앞(경유),277102721,37.48855,126.7511667
극동아파트앞(경유),277101754,37.4887833,126.751
근화아파트,210000389,37.5206833,126.7959167
근화아파트,210000379,37.5208833,126.7957
금강마을,210000106,37.5079333,126.7593833
금강마을,210900005,37.5079333,126.7587
금강마을상가.한라마을,210000143,37.5086,126.7601333
금강맨션,210000034,37.4840167,126.7998333
금강맨션,210000311,37.4838667,126.79965
금강주공아파트,210000142,37.5082167,126.763
금수강산,211000247,37.4819333,126.7630667
금수강산,211000246,37.4818167,126.76285
금호빌라,212000132,37.52385,126.7888
금호빌라,212000128,37.5236833,126.7888167
금호한양상가.유베이스,210000544,37.4962,126.7758167
기린운수종점,211000284,37.4699333,126.8297333
기업은행.위브더스테이트5단지,210000006,37.49835,126.7772167
깊은구지,211000047,37.4812833,126.7757833
깊은구지사거리,211000056,37.4788833,126.77545
깊은구지사거리,211000086,37.4787333,126.7756167
깊은구지사거리심곡고가방면,211000109,37.4792,126.77525
까치울,212000402,37.51255,126.8100167
까치울마을,212000413,37.5131,126.8154833
까치울마을,212000410,37.5128833,126.8157167
까치울역2번출구,210000382,37.50615,126.8105833
까치울역3번출구,212000174,37.50645,126.8102
까치울역4번출구.까치울전원마을3.4단지,212000064,37.5074667,126.8115667
까치울역5번출구.까치울전원마을3.4단지,212000105,37.5073667,126.8119167
까치울전원마을1.2단지,212000104,37.51055,126.8125667
까치울전원마을1.2단지,212000065,37.5107167,126.81225
까치울초등학교,212000103,37.5144833,126.8133833
까치울초등학교,212000066,37.5148167,126.8131833
까치울터널,212000411,37.51325,126.8216333
까치울터널,212000412,37.51325,126.8180333
꿈동산.사랑마을,210000048,37.4937,126.7574667
꿈동산.사랑마을,210000286,37.4939667,126.75705
꿈마을,210000240,37.5011667,126.7805333
꿈마을,210000108,37.5014333,126.7806667
꿈마을.연화마을,210000141,37.4981667,126.7798
꿈마을.연화마을,210000148,37.49845,126.78005
꿈마을아파트,210000611,37.5006333,126.7792167
나성빌딩,210000371,37.5088667,126.77515
나성빌딩,210000178,37.5083667,126.7746667
남정빌라,212000075,37.52885,126.8216167
남정빌라,212000094,37.5289667,126.8218667
내동고개,212000152,37.5200333,126.7822333
내동고개,212000137,37.5203667,126.7821667
내동사거리,212000153,37.5200333,126.7768167
내동사거리,212000136,37.5202833,126.7763167
내리주유소.내동사거리,212000165,37.5223333,126.7753667
내리주유소.내동사거리,212000170,37.5223,126.7758167
내셔날전기,212000434,37.5262667,126.7826833
내촌고가밑,212000119,37.5242167,126.78465
내촌고가입구,212000007,37.52625,126.7823833
내촌고가입구,212000130,37.5244167,126.7843667
내촌사거리,212000006,37.5205833,126.7845333
내촌사거리,212000003,37.5205333,126.7848
노동복지회관.오정시장,212000129,37.52405,126.7858833
노마즈하우스.우리은행,210000340,37.4886333,126.78355
농협사거리(마),210000306,37.4875667,126.8108333
농협신흥지점,210000369,37.5137,126.7754
농협중앙회,210000385,37.5004333,126.7751833
농협중앙회,210000384,37.50075,126.77575
다보악기,211000236,37.4785833,126.7960833
다정한마을.금강아파트,210000200,37.5137667,126.7546167
다정한마을.금강주공아파트,210000205,37.5143,126.7550667
다정한마을.레미안아파트,210000204,37.5152667,126.7580833
다정한마을.레미안아파트,210000201,37.5154,126.7589833
다정한마을주공아파트,210000461,37.5156667,126.7573
당아래,210000024,37.5045167,126.7948333
당아래,210000025,37.5046667,126.7950167
당아래지하차도,210000079,37.5046833,126.7938333
당아래지하차도,210000078,37.5051333,126.79415
대동아파트정문앞,210000475,37.4897,126.7425333
대림슈퍼.극동아파트,211000286,37.4775333,126.7823667
대림슈퍼.극동아파트,211000285,37.47745,126.7825167
대림아파트,210000487,37.51165,126.75775
대성병원,210000341,37.4917333,126.78425
대성병원,210000362,37.4914667,126.7845667
대성병원.심곡천사거리,210000133,37.49145,126.7836667
대성병원.심곡천사거리,210000112,37.4912167,126.7833333
대성연립,212000091,37.5304,126.8091
대성연립,212000079,37.5304833,126.8087667
대우푸르지오앞,211000265,37.4782167,126.7981
대장공영차고지,212000232,37.5358667,126.7616167
대장공영차고지,212000230,37.536,126.7616833
대장공영차고지(경유),277103079,37.5359667,126.7614
대장동입구,115000585,37.54045,126.8004667
대장동종점,212000011,37.5415333,126.7884667
대장동종점,212000106,37.5416333,126.78855
대장초교,212000010,37.5414,126.7912167
대장초교,212000107,37.5414167,126.79095
대진기전,210000617,37.5105833,126.7833167
대진기전,210000473,37.5104333,126.7832333
대진아파트,211000035,37.4771333,126.7724667
대진아파트,211000043,37.4768167,126.7727833
대진아파트,210000035,37.4835333,126.8015667
대진아파트,210000310,37.48315,126.80255
대진아파트입구,211000036,37.4767,126.7733167
대하빌라,212000341,37.5144,126.8063667
대하빌라,212000342,37.51375,126.8064167
대화아파트,210000033,37.4842667,126.7960833
대화아파트,210000312,37.4840667,126.7959833
덕산고.봉오대로사거리,212000009,37.53145,126.7884
덕산고.봉오대로사거리,212000185,37.5315667,126.78895
덕산고.봉오대로사거리,212000161,37.5318667,126.7902333
덕산고등학교앞,212000432,37.5296,126.7876167
덕산고등학교앞,212000431,37.5295667,126.7879833
덕산중고교.덕산초교,212000085,37.5296333,126.7922167
덕산초(경유),277102369,37.54135,126.7897667
덕유마을,210000026,37.5105833,126.766
덕유마을.설악마을,210000064,37.5086333,126.7694333
덕유마을3단지,210000056,37.51035,126.7684167
덕유마을3단지,210000216,37.5106,126.7678667
덕유마을상가,210000215,37.5107833,126.7663333
도당고.부천북고,212000436,37.5176667,126.7897167
도당고.부천북고,210000620,37.5176833,126.78995
도당교,210000394,37.5218833,126.7948833
도당교,210000395,37.5220667,126.7949833
도당동.우남A앞,212000435,37.5197667,126.78975
도당동.우남A앞,210000621,37.51975,126.7899667
도당동장미원입구,210000354,37.5201,126.7904833
도당동주민센터,210000355,37.5164,126.78485
도당동주민센터,210000348,37.5156833,126.78455
도당사거리,210000372,37.5178833,126.7833333
도당사거리,212000005,37.5182,126.7833167
도당사거리.북중학교,212000138,37.5196167,126.7864667
도당사거리.북중학교,210000376,37.5189333,126.7856667
도당소공원,210000393,37.52065,126.7892167
도당소공원,212000186,37.5209,126.7893333
동곡초교,210000588,37.4903,126.81655
동곡초등학교.온수고가사거리,210000602,37.4895333,126.8178667
동곡초등학교.온수고가사거리,210000603,37.4893167,126.81785
동광교회,211000215,37.48135,126.8055
동문아파트,212000082,37.5293167,126.8031333
동문아파트,212000088,37.5295333,126.80325
동부센트레빌3차아파트,210000597,37.4910333,126.8117167
동부센트레빌3차아파트,210000591,37.4912333,126.8122833
동부아파트,210000432,37.48825,126.8071333
동부아피트입구,210000478,37.4873,126.8079667
동산빌리지.대한노인회,212000146,37.5221833,126.8006
동신아파트,211000090,37.4799167,126.7645
동신아파트,211000052,37.4800333,126.7644667
동신주택,212000192,37.5234,126.8111
동원아파트,212000242,37.5313,126.8192667
동원아파트,212000241,37.5311167,126.8192
동진아파트,212000019,37.5299167,126.8066
동진아파트,212000024,37.5302167,126.8067
두산삼성주공아파트,211000177,37.4674833,126.80185
라이프동주아파트,212000445,37.5238333,126.7876167
라일락마을.석천초교,210000210,37.5097833,126.7530167
라일락마을.석천초교,210000195,37.5095167,126.7528833
라일락마을경남아파트,210000198,37.5127167,126.7516167
라일락마을경남아파트,210000207,37.5125833,126.7506167
라일락마을어린이공원,210000196,37.5097667,126.7510667
라일락마을어린이공원,210000209,37.5100167,126.7511
라일락마을하이타운로즈빌,210000199,37.5124667,126.75355
라일락마을하이타운로즈빌,210000206,37.5123333,126.75265
로얄아파트,212000195,37.5195,126.8133
로얄아파트,212000194,37.5198833,126.8125333
로얄아파트,212000437,37.5195,126.8128
롯데아파트,212000335,37.5197833,126.8089833
롯데아파트,212000334,37.5199833,126.8090667
루미아트,210000572,37.4962,126.7777167
목련마을,210000072,37.4934,126.7481667
목련마을,210000188,37.4926833,126.7478
몰드벨리,212000367,37.52945,126.7781333
미도아파트,212000320,37.5253167,126.8251
미도아파트,212000355,37.5252333,126.8251
미리내마을,210000170,37.5008333,126.7712667
미리내마을,210000103,37.5011333,126.7708667
미성주유소,212000338,37.5189,126.8046833
미소정형외과,210000609,37.4933833,126.7853333
미소정형외과,210000608,37.4936,126.785
민속가든,212000391,37.5344,126.8185667
민속가든,212000392,37.5340833,126.81805
반달마을.법원.검찰청,210000285,37.493,126.7545667
밝은비젼의원,212000198,37.5268333,126.8113167
밝은비젼의원,212000191,37.5270167,126.81115
밤골.부천산울림청소년수련관,210000303,37.4989667,126.8089833
밤골.부천산울림청소년수련관,210000302,37.4985333,126.8086167
방배아파트,212000151,37.5211,126.8040833
방배아파트,212000145,37.5209833,126.80385
백산빌라,212000133,37.5235333,126.7958167
백산빌라,212000423,37.5229833,126.7952167
백산빌라,212000126,37.5236167,126.7955167
백산빌라,212000424,37.5229167,126.7950167
범박고등학교,211000252,37.4686833,126.8121333
범박고등학교,211000253,37.4687667,126.8122833
범박동주민센터,211000028,37.4699333,126.8092667
범박동주민센터,211000144,37.4711,126.809
범박동휴먼시아2차,211000255,37.4679667,126.8132
범박동휴먼시아2차,211000254,37.4680333,126.8134167
범박휴먼시아,211000229,37.47845,126.81355
범박휴먼시아1단지,211000228,37.4770333,126.8108667
범박휴먼시아1단지,211000032,37.47685,126.8151
범박휴먼시아1단지,211000210,37.4775333,126.81545
범박휴먼시아1단지,211000227,37.4785833,126.8131167
법원.검찰청,210000075,37.4912167,126.758
법원.검찰청,210000082,37.4912167,126.7562333
법원.검찰청.복사골문화센터.반달마을,210000049,37.49345,126.7554
법원.검찰청입구,210000536,37.4905333,126.75705
법원.검찰청입구,210000535,37.49045,126.7567667
법원사거리(경유),277101727,37.4918,126.7548167
벚꽃마을,210000243,37.4932333,126.7440833
벚꽃마을,210000248,37.4931833,126.7438333
베르네천,212000139,37.5211333,126.8016667
베르네천,212000150,37.5213,126.8014
병원앞,210000242,37.4966667,126.7446
병원앞,210000249,37.4963667,126.7443333
보강빌라.대흥아트빌,211000225,37.4844,126.8191
보람마을,210000226,37.49685,126.7603
보람마을.신도초교,210000225,37.49725,126.7574167
복사골뜨란채아파트,211000240,37.4817667,126.7559333
복사골마을,210000235,37.4943667,126.76705
복사골마을,210000320,37.4945167,126.7673833
복사골문화센터,210000086,37.4942333,126.75395
복사골문화센터.반달마을,210000070,37.4940333,126.7528667
복사골문화센터.한아름마을,210000062,37.4950333,126.75515
복사골신협,211000114,37.4752833,126.7938167
복사초등학교,211000183,37.4676833,126.7982167
복사초등학교.동해슈퍼,211000179,37.4678333,126.7981
복사초등학교.한울빛도서관,211000009,37.4671,126.7983
복지교회.여월성당,212000340,37.5160667,126.8056667
복지교회.여월성당,212000339,37.5158167,126.8055333
복지아파트,210000375,37.5199167,126.7879333
복지아파트,210000350,37.5202333,126.7894167
봉림아파트,210000622,37.5166167,126.7882
봉림아파트,210000623,37.5167,126.7882
봉오고가교(경유),277102364,37.5333167,126.7608167
부강아파트,212000052,37.5241167,126.8123667
부강아파트,212000054,37.524,126.8132167
부개6단지후문.웅진플레이,210000576,37.4987667,126.7431667
부개역.상동차고지,210400056,37.4888667,126.7433833
부개역.상동차고지,210400057,37.4886667,126.7437167
부곡중학교,210000130,37.4951833,126.7730833
부곡중학교,210000115,37.4947667,126.77385
부대앞,212000068,37.5209,126.8148667
부대앞,212000101,37.5202167,126.8150333
부대앞.아시아나항공입구,212000168,37.5419667,126.8028167
부대후문,212000157,37.5377833,126.8173
부명고.순천향대학병원,210000288,37.4976167,126.7615
부안초교.동원주택,211000076,37.4788667,126.8128167
부안초교.동원주택,211000067,37.4791333,126.81295
부원초등학교,211000021,37.47835,126.7929667
부원초등학교,211000018,37.4781667,126.7927333
부인중학교,210000073,37.4917333,126.7501833
부인중학교,210000084,37.4915,126.7500667
부인초교,210000187,37.4898,126.74775
부인초교,210000214,37.4898167,126.7481167
부천IC,212000169,37.5255,126.7781667
부천IC,212000166,37.5255167,126.7777
부천IC,212000123,37.5259667,126.7772167
부천IC,212000375,37.5257167,126.7768167
부천고교.현대아파트,211000199,37.4796333,126.76555
부천고교.현대아파트,211000198,37.4794,126.76575
부천고용복지플러스센터,210000175,37.50285,126.7834333
부천고용복지플러스센터,210000182,37.5031333,126.7829667
부천교육지원청.부천세무서,210000294,37.5070833,126.7733833
부천교육지원청.부천세무서,210000038,37.5067833,126.7740167
부천남부생태공원,211000197,37.4712167,126.8272667
부천남부생태공원,211000187,37.4709333,126.8277833
부천남중학교,211000055,37.4793333,126.7724167
부천남중학교,211000087,37.4792167,126.7724333
부천남초등학교.제일교회,211000287,37.4807833,126.7828
부천남초등학교.제일교회,211000288,37.4811,126.7829167
부천대우테크노파크,210000267,37.5113167,126.7803833
부천대우테크노파크,210000275,37.5107,126.78015
부천대입구,210000404,37.4866167,126.7786167
부천대입구,210000364,37.4864833,126.7778667
부천대제2캠퍼스,211000184,37.4642,126.7997333
부천대학교,210000004,37.4886833,126.7770333
부천대학교,210000012,37.4883833,126.7774333
부천대후문,210000314,37.4905,126.7799167
부천대후문,210000031,37.4908333,126.7789833
부천범박힐스테이트1.2단지,211000146,37.4744167,126.80845
부천범박힐스테이트1.2단지,211000026,37.4744833,126.8087333
부천범박힐스테이트1.3단지,211000258,37.4739833,126.81165
부천범박힐스테이트1.3단지,211000259,37.4740833,126.8119167
부천범박힐스테이트3.4단지,211000027,37.4723667,126.8093167
부천범박힐스테이트3.4단지,211000145,37.4723167,126.8089833
부천범박힐스테이트5.6단지,211000143,37.4683667,126.8091167
부천범박힐스테이트5.6단지,211000029,37.4683167,126.8094333
부천범박힐스테이트입구.동남사거리,211000116,37.4763167,126.8080833
부천범박힐스테이트입구.동남사거리,211000233,37.4755,126.8072833
부천범박힐스테이트입구.동남사거리,211000234,37.4751333,126.8073333
부천범박힐스테이트입구.동남사거리,211000132,37.4762333,126.8079333
부천보건소.건영아파트,210000111,37.4953,126.7810667
부천보건소.건영아파트,210000237,37.4952167,126.78075
부천북여자중학교,210000624,37.5167,126.7858167
부천북여자중학교,210000625,37.5166333,126.7858167
부천북초등학교,210000342,37.49415,126.7848
부천북초등학교,210000607,37.4930833,126.7874167
부천북초등학교,210000606,37.4932667,126.7870667
부천북초등학교,210000361,37.49445,126.7852167
부천상공회의소,210000316,37.4913167,126.7742333
부천상록학교,210000377,37.5066667,126.8046667
부천상록학교.은행나무주유소,212000063,37.50695,126.8048
부천상상거리,210000564,37.4861667,126.7802333
부천성모병원입구,210000021,37.4861167,126.7903333
부천성모병원입구,210000017,37.4862667,126.7905167
부천세무서,210000295,37.5075167,126.77475
부천세무서,210000037,37.5075333,126.77525
부천소방서,210000114,37.4943667,126.7774667
부천소방서,210000131,37.4946833,126.77715
부천소방서.부천대학사거리,210000011,37.4911333,126.7780333
부천소방서.부천대학사거리,210000005,37.4915,126.7776833
부천소사경찰서,211000248,37.48195,126.7728667
부천소사경찰서,211000239,37.4819833,126.7730833
부천소사푸르지오,211000182,37.4798,126.79865
부천소풍터미널(경유),274195837,37.50455,126.7564333
부천시민학습원,210000402,37.4899667,126.7855833
부천시민학습원,210000403,37.4896667,126.7853333
부천시자원순환센터,212000109,37.5419667,126.76385
부천시자원순환센터,212000110,37.5416,126.7640667
부천시청,210000482,37.5025333,126.76905
부천시청,210000054,37.50225,126.7687
부천시청,210000614,37.50345,126.7673833
부천시청.중앙공원,210000120,37.5013667,126.7658667
부천시청.중앙공원,210000125,37.5017167,126.76645
부천시청역1번출구,210000165,37.50405,126.76675
부천시청역2번출구.현대백화점.이마트,210000043,37.5032833,126.7630667
부천시청역3번출구.경기예고.현대백화점,210000166,37.5048,126.76125
부천시청역4번출구.현대백화점.경기예고,210000161,37.5052,126.7611667
부천시청역5번출구,210000406,37.50465,126.76575
부천실내체육관,210900006,37.5139167,126.7603333
부천아이파크,210000277,37.51495,126.7681
부천아이파크,210000265,37.5152167,126.76735
부천여중.성주중,211000245,37.4816167,126.7604167
부천여중.성주중,211000244,37.4814833,126.7604167
부천역.국민은행,210000339,37.4862167,126.7815333
부천역.심곡2동행정복지센터,210000271,37.48535,126.7858667
부천역.심곡2동행정복지센터,210000184,37.48575,126.7853
부천역남부,211000111,37.4828833,126.7836
부천역남부,211000112,37.4831833,126.7836833
부천역남부.부천남초교,211000083,37.4819,126.7821333
부천역남부.부천남초교,211000060,37.4820333,126.7819833
부천역남부광장,211000002,37.4829833,126.7816667
부천역남부광장,211000104,37.48335,126.7813833
부천역북부,210000465,37.4855667,126.7843333
부천역북부(기점),210000481,37.4854333,126.7846167
부천역북부.농협,210000363,37.4868333,126.7834667
부천역전우체국,211000268,37.48305,126.7858167
부천역전우체국,211000017,37.4827667,126.7856667
부천역차고지,211000232,37.4828333,126.7828833
부천오정물류단지(중),212000390,37.53175,126.7678167
부천오정물류단지(중),212000389,37.5319167,126.7698667
부천우편집중국.부천실업고,212000120,37.5271833,126.7828167
부천우편집중국.부천실업고,212000108,37.52705,126.78295
부천자동차검사소,212000221,37.5256333,126.7652167
부천자동차검사소,212000121,37.5258333,126.7652167
부천자유시장,211000003,37.48325,126.7787167
부천장례식장(경유),277102368,37.5013667,126.7936
부천정보산업고,210000213,37.4961667,126.7482
부천정보산업고.상동우체국,210000257,37.4971833,126.7487333
부천정보산업고교,210000189,37.4957333,126.7478333
부천종합운동장역,212000001,37.5059,126.7989667
부천종합운동장역1번출구,210000378,37.5058667,126.80025
부천종합운동장역4번출구,212000048,37.50625,126.79735
부천종합운동장역5번출구,212000058,37.5062167,126.7976833
부천중사거리,210000528,37.49225,126.7706167
부천중사거리,210000284,37.4921833,126.7703167
부천중학교,210000317,37.4917333,126.7713333
부천중학교,210000028,37.4923,126.7687333
부천체육관,210000089,37.51425,126.7641667
부천체육관.부천초교사거리,210000067,37.5152,126.7637333
부천체육관북문,210000202,37.5151833,126.7623667
부천체육관북문,210000390,37.5149167,126.7619833
부천초등학교,210000264,37.5152167,126.7649167
부천초등학교,210000278,37.51495,126.7652
부천축산물공판장,212000045,37.5298333,126.761
부천축산물공판장,212000061,37.5303667,126.7604667
부천축산물공판장입구,212000351,37.5316167,126.7621667
부천축산물공판장입구,212000350,37.5319,126.7625667
부천터미널삼거리(경유),277102361,37.5030833,126.7561167
부천터미널소풍,210000533,37.5044167,126.7563833
부천터미널소풍,210000561,37.5044167,126.7561333
부천터미널소풍,210000335,37.50445,126.7584
부천터미널소풍,210000160,37.5044,126.75775
부천터미널소풍(시외.고속),210000601,37.5041833,126.7565667
부천터미널소풍(시외.고속),210000600,37.5041167,126.75655
부천테크노쌍용3차,212000314,37.5227667,126.76865
부천테크노쌍용3차,212000315,37.5227,126.7689
부천테크노파크1.2단지,212000204,37.5182,126.7607333
부천테크노파크1단지,212000222,37.51855,126.76135
부천테크노파크1단지100동앞,212000059,37.5185167,126.7633333
부천테크노파크1단지남문,212000177,37.5181167,126.7623667
부천테크노파크2단지,210000463,37.5174667,126.7613333
부천테크노파크2단지200동앞,210000203,37.51785,126.7627667
부천테크노파크2단지201동앞,210000396,37.5163833,126.7632167
부천테크노파크3단지(경유),277101671,37.52,126.76485
부천테크노파크3단지(경유),277102521,37.5202667,126.7636333
부천테크노파크3단지300동앞,212000047,37.51865,126.7636333
부천테크노파크3단지301동앞,212000187,37.5180667,126.7646833
부천테크노파크4단지401동앞,210000392,37.5178333,126.7646833
부천테크노파크4단지403동앞,210000391,37.5164167,126.7635667
부평동중,210900003,37.4958167,126.7421167
부평디자인과학고등학교,210000579,37.50065,126.7436333
부흥중학교,210000181,37.5055833,126.77875
부흥중학교.심원고교,210000176,37.5054,126.77855
북부도서관,210000352,37.5200833,126.79495
북부수자원생태공원,212000419,37.5443167,126.7649333
북부수자원생태공원,212000420,37.54455,126.7648167
북부역사거리(경유),277102360,37.4859333,126.7834167
북중학교,210000002,37.5180167,126.78485
북중학교,210000349,37.51785,126.78455
브리즈힐.센트리뷰,211000277,37.4638,126.8196333
브리즈힐.센트리뷰,211000276,37.465,126.8208833
사랑마을.신도초교,210000549,37.49685,126.7575833
사랑마을벽산.선경.삼익아파트,210000061,37.4961667,126.7561333
사랑마을후문,210000223,37.49665,126.7594667
산들초등학교,211000271,37.4614333,126.8154833
산들초등학교,211000221,37.4616667,126.8170667
삼거리,212000245,37.5315167,126.8214
삼거리.고강아파트입구,212000253,37.5314,126.8215167
삼산주공4단지,166000591,37.5099333,126.7414667
삼산체육관역(경유),277103547,37.50675,126.74255
삼산체육관역.상동호수공원,210000229,37.5067333,126.7443333
삼산체육관역.상동호수공원,210000228,37.5062333,126.7443167
삼산체육관역.영상문화단지정문,210000001,37.5077667,126.7421
삼성두산주공아파트,211000208,37.4675333,126.8016
삼성아파트,210000590,37.4900333,126.8125167
삼신아파트,211000180,37.4800667,126.802
삼우아파트,211000243,37.4819167,126.7591333
삼우아파트,211000242,37.48185,126.7588167
삼익세라믹아파트.SKVIEW아파트,211000080,37.4767167,126.8017167
삼익세라믹아파트.SKVIEW아파트,211000063,37.4765333,126.8013833
삼정고가교삼거리(경유),277101681,37.5258167,126.7610167
삼정동중소기업협동화단지,212000125,37.5256,126.7624
삼정동중소기업협동화단지,212000333,37.5258167,126.7619167
삼정사거리,212000154,37.5200667,126.7707333
삼정사거리,212000135,37.5203167,126.7711333
삼정사거리입구,212000163,37.5194333,126.7718167
삼정사거리입구,212000172,37.51935,126.7719333
삼정아파트,212000173,37.5177,126.7725833
삼정아파트,212000162,37.51765,126.7724833
삼정종합사회복지관,212000134,37.5185333,126.7662833
삼정종합사회복지관,212000033,37.5193333,126.7664333
삼정초등학교,212000035,37.5191833,126.7702333
삼정초등학교,212000040,37.5192167,126.76995
삼풍맨션,212000354,37.5235167,126.8235333
삼풍맨션,212000323,37.5233833,126.8233667
삼하빌라,212000127,37.5232,126.79275
삼하빌라,212000112,37.5233667,126.7929
삼화연립주택,212000208,37.5256833,126.81115
삼화연립주택,212000209,37.5258167,126.8113167
상1동주민센터,210000083,37.4914667,126.7522333
상1동주민센터,210000074,37.49165,126.7532333
상1동주민센터입구,210000538,37.4905667,126.7511833
상1동주민센터입구,210000539,37.4908,126.7514
상2동행정복지센터,210000121,37.5002167,126.7541833
상2동행정복지센터,210000124,37.5002167,126.75465
상공회의소,210000029,37.4917333,126.7726833
상구빌딩,212000100,37.5234333,126.8156167
상구빌딩,212000069,37.5234833,126.8153333
상도중학교,210000258,37.4935833,126.76005
상도중학교,210000047,37.4934,126.7595167
상동가구,210000326,37.4932333,126.7419833
상동고,210000244,37.4909167,126.7444
상동고,210000247,37.49045,126.744
상동시장,210000321,37.4927167,126.7644333
상동시장,210000233,37.4929,126.7645667
상동시장.중동역.부천여고,210000282,37.4885167,126.76265
상동역1번출구.부천터미널소풍.홈플러스,210000327,37.5055833,126.7538833
상동역2번출구.홈플러스상동점,210000328,37.50445,126.7530167
상동역3번출구.홈플러스상동점,210000192,37.5044833,126.7527
상동역4번출구.상동지하차도,210000324,37.5056,126.7515
상동역5번출구.상동지하차도,210000009,37.50605,126.7519333
상동역6번출구.세이브존,210000193,37.5064667,126.7531667
상동역7번출구.세이브존,210000255,37.50665,126.7534667
상동역8번출구.세이브존,210000157,37.506,126.7551
상동우체국,210000190,37.4975,126.7505667
상동주민센터.삼광교회,210000287,37.4942667,126.7608167
상동주민센터.삼광교회,210000046,37.4946333,126.7613167
상동중학교,210000250,37.49745,126.7455167
상동중학교,210000337,37.4972833,126.7453167
상우아파트.청소년문화의집,212000076,37.5292333,126.8183333
상우아파트.청소년문화의집,212000093,37.5293667,126.8184667
상인초등학교.금강아파트,210000146,37.5121667,126.7557833
상인초등학교.금강아파트,210000332,37.512,126.7549833
상일초교,210000323,37.5008167,126.7496667
상지초등학교,210000232,37.4933333,126.7615667
상지초등학교,210000439,37.4931667,126.7613667
새마을금고,212000327,37.5257833,126.8213333
새마을금고,212000360,37.5258667,126.8212167
새보미아파트.고강시장,212000073,37.5265667,126.8215333
새보미아파트.고강시장,212000096,37.52635,126.82165
새소망교회,211000270,37.4860833,126.8190167
샛별어린이공원,210000177,37.50645,126.7763833
샛별어린이공원,210000180,37.50665,126.7766167
서림아파트,212000051,37.5241333,126.8090333
서림아파트,212000055,37.524,126.8092833
서울농원,212000156,37.53625,126.8160167
서울농원,212000158,37.5360667,126.8162833
서촌공원(경유),277102538,37.4886667,126.7493833
석왕사.다문화가족지원센터,210000097,37.49075,126.7942333
석왕사.다문화가족지원센터,210000090,37.4909,126.794
석천중학교.진달래신동아아파트,210000334,37.5091833,126.7575333
설악마을.덕유마을,210000059,37.5095667,126.76985
설악마을.중흥마을,210000039,37.50715,126.77115
설악마을.중흥마을,210000293,37.5073167,126.7713333
성곡동행정복지센터.홈플러스여월점,212000014,37.51635,126.8035167
성곡동행정복지센터.홈플러스여월점,212000029,37.5164,126.8038667
성곡중학교,212000421,37.5187,126.8156333
성곡중학교,212000422,37.5185667,126.8153
성곡중학교.장애인복지회관,212000102,37.5178,126.81435
성곡중학교.장애인복지회관,212000067,37.5179167,126.8140833
성곡치안센터입구,212000030,37.5171667,126.8002833
성곡치안센터입구,212000013,37.5173833,126.8003667
성심슈퍼,210000425,37.4837167,126.8037
성우아파트,210000567,37.4906333,126.8201667
성우아파트,210000290,37.4907667,126.8200167
성일아파트후문앞,210000427,37.4911167,126.74245
성주초교.부천공고,211000088,37.4796,126.7691
성주초교.부천공고,211000054,37.4797167,126.76905
성지아파트,212000148,37.5238833,126.8001667
성지아파트,212000140,37.5237833,126.7999167
성지아파트.산성교회입구,211000289,37.4824,126.79015
성진그린타운,212000080,37.5322,126.80715
성진그린타운,212000090,37.5324833,126.8070333
성진그린타운.삼부아파트,212000020,37.5324833,126.8061833
성진그린타운.삼부아파트,212000023,37.5326333,126.8063
세일병원입구,210000032,37.4904167,126.7819
세일병원입구,210000313,37.4900667,126.7828167
세종병원.서울신학대학교,211000019,37.48025,126.7932833
세종병원.서울신학대학교,211000020,37.48075,126.7934167
세종아파트,212000430,37.5291667,126.7886167
세종아파트,212000429,37.52905,126.7891
센트럴힐,211000281,37.4616833,126.8259667
소각장사거리(경유),277102005,37.51995,126.76695
소림사,211000085,37.4784333,126.77775
소림사,211000057,37.4784833,126.7781333
소명사거리,210000185,37.4848833,126.7903833
소명사거리,210000173,37.4848167,126.7896833
소명사거리.동영피렌체,210000149,37.4852,126.7884333
소명여고사거리,210000619,37.4873,126.7890667
소명여고사거리,210000140,37.48615,126.7894167
소명여중고입구,210000150,37.4881667,126.7897167
소명여중고입구,210000016,37.4883833,126.7900333
소명지하차도입구,211000105,37.4825833,126.7910667
소방서사거리(경유),277101763,37.4936167,126.7781333
소사3거리.세종병원,211000016,37.4815333,126.7935333
소사경찰서,211000004,37.48385,126.7718667
소사고등학교,211000212,37.46585,126.7996667
소사고등학교,211000093,37.4655167,126.79925
소사고등학교.풍림아파트,211000204,37.46655,126.8009
소사공영차고지,211000219,37.4655,126.7987667
소사공영차고지,211000220,37.4656333,126.7987
소사공영차고지(경유),277103080,37.4654667,126.79865
소사구종점,211000147,37.4724333,126.7944
소사구종점,211000024,37.4725833,126.7946
소사국민체육센터,211000152,37.46895,126.7976833
소사국민체육센터,211000151,37.4692,126.7976167
소사동주민센터.부천성모병원후문입구,210000098,37.4853333,126.79435
소사동주민센터입구.부천성모병원후문,210000262,37.487,126.7941
소사본3동우체국,211000282,37.46655,126.7986167
소사본3동우체국(경유),277102376,37.4664667,126.7986667
소사본3동주민센터,211000164,37.4725833,126.79825
소사본동행정복지센터,211000022,37.4761333,126.7923833
소사본동행정복지센터,211000149,37.4755167,126.79205
소사삼거리(경유),277102374,37.4824333,126.79315
소사삼거리.세종병원.서울신학대학,211000106,37.4814167,126.7943667
소사어울마당.소사보건소,211000174,37.4796,126.8001833
소사어울마당.소사보건소,211000181,37.4797667,126.8003667
소사어울마당.소사푸르지오,211000237,37.4793833,126.79975
소사어울마당.소사푸르지오,211000235,37.4800333,126.7985167
소사어울마당사거리,211000175,37.4798167,126.8028333
소사어울마당사거리,211000135,37.4799,126.8030667
소사어울마당삼거리,211000173,37.4817167,126.7991667
소사어울마당삼거리,211000110,37.4812333,126.79925
소사어울마당삼거리.MJ컨벤션,211000121,37.4823167,126.7985167
소사어울마당삼거리.MJ컨벤션,211000123,37.4819667,126.7997833
소사역,210000388,37.4827,126.7949
소사역,211000120,37.4824,126.79495
소사역,211000001,37.4827333,126.7951833
소사역,211000124,37.4821167,126.7936833
소사역.부천성모병원입구,210000172,37.4842333,126.7934
소사역.부천성모병원입구,210000186,37.4845,126.79295
소사역.소사지구대,211000125,37.4823833,126.7956167
소사종합시장,211000264,37.4787167,126.7941833
소사종합시장,211000107,37.4778167,126.7957
소사종합시장,211000267,37.4788333,126.7942333
소사종합시장,211000015,37.4774833,126.7953833
소사주공4단지입구삼거리(경유),277102367,37.4713167,126.80465
소사중학교.주공뜨란채4단지,211000025,37.4701333,126.8002333
소사초교앞사거리,211000108,37.4745,126.7957167
소사초교앞사거리,211000283,37.4757333,126.7954
소사초교앞사거리,211000214,37.47615,126.7953833
소사초등학교정문,211000160,37.4750833,126.7975833
소사초등학교정문,211000082,37.47515,126.7965333
소사초등학교정문,211000061,37.4752667,126.7968333
소사초등학교후문,211000159,37.4742,126.7975833
소중3길사거리,211000007,37.472,126.79575
소중3길사거리,211000013,37.4720167,126.7953833
소중3길사거리(경유),277101601,37.4723833,126.7953833
손가면옥,210000296,37.5117833,126.7748833
손가면옥,210000370,37.5110667,126.77525
솔안공원,210000281,37.4884333,126.7587
솔안공원,210000283,37.4881333,126.7586333
송내IC(경유),277103162,37.4891,126.74645
송내IC(경유),274195525,37.4857333,126.7479333
송내IC(경유),274195526,37.48555,126.74745
송내IC(경유),277103163,37.4879167,126.7471833
송내IC진입(경유),277103161,37.4861167,126.7497833
송내IC출입(경유),277103160,37.4860667,126.7495
송내e편한세상.부천고,211000089,37.47955,126.7671
송내e편한세상.부천고,211000053,37.4796833,126.7672667
송내고교입구,210000171,37.4887167,126.74485
송내고교입구,210000102,37.4889167,126.7446667
송내사거리.송일초등학교,211000048,37.48355,126.7624
송내사거리.중동역,211000097,37.48385,126.76235
송내사회체육관.부천고.부천공고,211000100,37.4841667,126.7670167
송내사회체육관.부천고.부천공고,211000005,37.4838667,126.7673333
송내역.로데오거리,210000537,37.48965,126.7536833
송내역.반달공영주차장,210000159,37.4887333,126.75175
송내역.영화의거리,210000472,37.4895,126.7543167
송내역.투나,210000050,37.4885667,126.7552
송내역A,210000568,37.4878167,126.7540167
송내역B,210000569,37.4878333,126.7537
송내역C,210000570,37.4878333,126.7533333
송내역남부,211000049,37.4869667,126.753
송내역남부,211000095,37.4864833,126.75365
송내역남부,211000046,37.4869167,126.7536333
송내역남부,211000050,37.48655,126.7529333
송내역남부(광역버스),211000269,37.4862,126.75325
송내역남부광장(KTX광명역직행),211000290,37.4873167,126.7531667
송내초교.법원입구,210000076,37.4897333,126.7602667
송내초등학교,210000081,37.4903833,126.7600167
수녀원,210000479,37.4842333,126.8034167
수주고등학교,212000399,37.5318833,126.8159167
수주고등학교,212000398,37.53215,126.8161833
수주중학교,212000252,37.5306667,126.8170333
수주중학교,212000240,37.5307667,126.8169
수주초등학교,212000159,37.5298833,126.8162833
수주초등학교,212000077,37.5301,126.8159333
수협사거리,211000158,37.4723667,126.7975833
수협앞.소사초등학교후문,211000202,37.4732333,126.7975833
순천향대학병원.부명고,210000045,37.4973667,126.76185
시립도서관.중앙레포츠공원.현충원,210000093,37.4978833,126.7962667
시립도서관.중앙레포츠공원.현충원,210000096,37.4979667,126.7966667
시민운동장,210000366,37.4873167,126.77225
시민운동장.시민회관,210000100,37.4876167,126.7719333
시온고등학교,211000168,37.4705333,126.80505
시온고등학교,211000216,37.4705,126.8048833
신동문아파트,212000116,37.5299,126.7979667
신동문아파트,212000115,37.5300667,126.7977667
신일해피트리아파트,211000066,37.4784667,126.8106
신일해피트리아파트,211000077,37.4784167,126.8101333
신작동사거리,212000345,37.5192,126.8147333
신작동사거리,212000346,37.5192667,126.8144833
신중동역1번출구.꿈마을.삼환아파트,210000241,37.5023667,126.7794
신중동역2번출구.원미경찰서.롯데백화점,210000169,37.5009667,126.7770667
신중동역3번출구.롯데백화점.홈플러스중동지점,210000164,37.5031833,126.7729667
신중동역3번출구.원미경찰서.롯데백화점,210000453,37.50155,126.7763667
신중동역4번출구.롯데백화점.홈플러스중동지점,210000163,37.5037,126.7728833
신중동역5번출구.중흥중학교,210000105,37.5052667,126.7753833
신중동역6번출구.중흥중학교,210000168,37.5054667,126.7757667
신중동역7번출구.심원고교.삼환아파트.중3동주민센터,210000107,37.5028667,126.77895
신한일전기,211000051,37.4827833,126.7638667
신한일전기,211000091,37.4815833,126.7638333
신흥동주민센터,212000171,37.5201167,126.7734333
신흥동주민센터,212000164,37.5203167,126.7735667
신흥시장,212000038,37.5156,126.7699667
신흥시장,210000555,37.51495,126.7691333
신흥시장,212000037,37.5155167,126.7702833
신흥시장,210000556,37.5152167,126.7693167
신흥시장입구,212000348,37.5152167,126.772
신흥시장입구,212000349,37.515,126.7720667
심곡2동행정복지센터.원미초교,210000401,37.48845,126.7869
심곡2동행정복지센터.원미초교,210000400,37.4884333,126.78755
심곡고가사거리,211000102,37.4840333,126.7751833
심곡동양파라곤,211000223,37.4837333,126.7751333
심곡본동행정복지센터.일신교회,211000249,37.4798333,126.7816833
심곡본동행정복지센터.일신교회,211000059,37.4794833,126.78145
심곡약국,211000040,37.4773,126.7750667
심곡약국,211000039,37.47765,126.7748167
심곡천종점.부천보건소,210000113,37.4932,126.7807
심곡천종점.부천보건소,210000132,37.4927667,126.7819667
심곡초등학교,210000030,37.4912667,126.7760833
심곡초등학교,210000315,37.4909333,126.7768333
심원고등학교,210000272,37.5041,126.78015
심원고등학교,210000270,37.5038833,126.7803833
심원초등학교,210000109,37.4996833,126.78115
심원초등학교,210000239,37.5000667,126.7808333
심정고가교삼거리(경유),277102932,37.5256333,126.76105
쌍용3차.부천테크노파크,212000370,37.5226167,126.76735
쌍용아파트,210000253,37.5117667,126.7588333
써미트빌.진달래마을,210000211,37.5082167,126.7537833
씨에스아이엔테크,210000276,37.5141167,126.7801667
씨에스아이엔테크,210000266,37.5144167,126.7803833
아인스월드,210000330,37.5112833,126.7441167
아인스월드,210000548,37.5119,126.7453
아인스월드.영상문화단지후문,210000208,37.5104667,126.7494167
아인스월드.영상문화단지후문,210000197,37.5109,126.7485333
약대동주민센터.약대초등학교,210000066,37.5139667,126.7699667
약대동주민센터.약대초등학교,210000057,37.5130167,126.7701667
약대사거리,210000179,37.5145667,126.7745833
약대사거리,212000396,37.51575,126.7754667
약대사거리,212000397,37.5176,126.7751333
약대오거리,212000032,37.51525,126.7746667
약대오거리.동부하이텍,210000374,37.5152333,126.7763167
약대초등학교입구,210000338,37.5133667,126.7750167
양문교회,210000387,37.4892167,126.8099833
양문교회,210000300,37.4892333,126.8097833
양우아파트,211000157,37.47035,126.7975667
양우아파트,211000217,37.4701333,126.7976
양우아파트,211000012,37.4699667,126.7962
양우아파트,211000008,37.47015,126.7964
양지마을,211000263,37.4712167,126.8134
양지마을,211000262,37.471,126.8133833
양지마을입구,211000256,37.4724667,126.8142167
양지마을입구,211000257,37.47265,126.81415
양지초교,211000231,37.4799333,126.8163333
양지초교,211000230,37.47965,126.8150333
여우고개입구,211000129,37.4712333,126.79305
여우고개입구,211000128,37.4707167,126.7927833
여월농업공원.여월휴먼시아4단지,212000057,37.5088,126.7982
여월농업공원.휴먼시아4단지,212000049,37.5098667,126.7981667
여월단독주택,212000305,37.5109167,126.8076833
여월단독주택,212000304,37.5108833,126.8078833
여월중,212000031,37.5194,126.7974333
여월중,212000012,37.51945,126.7978667
여월천(경유),277102930,37.5356333,126.7940833
여월천(경유),277102933,37.5355667,126.7941833
여월휴먼시아1단지,212000443,37.5146833,126.8000167
여월휴먼시아1단지,212000425,37.5148333,126.7999667
여월휴먼시아1단지,212000444,37.5160167,126.8014333
여월휴먼시아1단지,212000426,37.5158167,126.80135
여월휴먼시아1단지.까치울중학교,212000311,37.5144833,126.8022
여월휴먼시아1단지.까치울중학교,212000310,37.5148167,126.8021833
여월휴먼시아2.3단지,212000306,37.5121167,126.80605
여월휴먼시아2.3단지,212000307,37.5118667,126.80605
여월휴먼시아3단지,212000302,37.5087667,126.8080333
여월휴먼시아3단지,212000303,37.5087333,126.80785
여월휴먼시아4.5단지,212000309,37.5103667,126.8012333
여월휴먼시아4.5단지,212000308,37.51055,126.8005667
여월휴먼시아5단지,212000050,37.512,126.7997333
역곡1동주민센터,210000592,37.4897333,126.8158667
역곡1동주민센터입구,210000019,37.4883833,126.8162667
역곡1동주민센터입구,210000279,37.4886167,126.8168667
역곡2동주민센터,210000420,37.4868167,126.80685
역곡2동주민센터,210000434,37.4867333,126.8062
역곡2동주민센터입구,210000308,37.4844333,126.8074833
역곡2동주민센터입구,210000297,37.48435,126.80655
역곡2치안센타(마),210000414,37.4864833,126.8083333
역곡감리교회.역곡2동성당,210000411,37.4876333,126.8090167
역곡감리교회.역곡2동성당,210000412,37.4874833,126.80895
역곡고가입구,211000073,37.4862167,126.8166667
역곡고가입구,211000070,37.4868167,126.8172
역곡시장,210000299,37.4874833,126.8106667
역곡시장,210000585,37.4885667,126.8117333
역곡시장(마),210000418,37.48655,126.8111833
역곡시장(마),210000417,37.4866167,126.81135
역곡안동네,210000386,37.4935833,126.8084667
역곡안동네,210000304,37.4932,126.80875
역곡역.역곡남부시장,211000118,37.4842167,126.8119833
역곡역.역곡남부시장,211000130,37.4841833,126.8110333
역곡역.역곡북부시장입구,210000018,37.48615,126.8121167
역곡역.역곡북부시장입구,210000280,37.4860833,126.8124833
역곡역남부,211000069,37.484,126.8125667
역곡역남부,211000074,37.4847333,126.81315
역곡역북부,210000307,37.4855167,126.8107667
역곡역북부,210000298,37.4856333,126.8106
역곡역북부,210000484,37.4857333,126.8118333
역곡역북부,210000416,37.4856167,126.8116
역곡역북부(마),210000587,37.4859667,126.8120833
역곡초.중.고등학교,210000301,37.4912,126.8088667
역곡초.중.고등학교,210000305,37.49065,126.8093667
영상단지후문,210000008,37.5092333,126.7492
영스포렉스,211000101,37.48425,126.7696167
영안아파트,210000222,37.4962333,126.7623833
영안아파트,210000227,37.4965167,126.7627667
영화아파트,212000118,37.52145,126.7987833
영화아파트,212000083,37.5298833,126.79965
영화아파트,212000087,37.5300833,126.7996333
예스빌라,212000353,37.5233,126.8218667
예스빌라,212000322,37.5231667,126.8219167
예원아파트.역곡동교회,210000594,37.49005,126.8127
오건아파트,212000144,37.5285167,126.8050333
오건아파트,212000143,37.5286333,126.8046333
오쇠교,212000364,37.5378333,126.8075
오쇠교,212000363,37.5387667,126.8071667
오쇠동삼거리,212000002,37.5428,126.8094333
오쇠동삼거리,212000021,37.5417167,126.8087333
오쇠동삼거리,212000167,37.5425833,126.8088
오쇠동입구,212000022,37.53955,126.8076333
오쇠삼거리(경유),277102934,37.5424167,126.80885
오쇠삼거리(경유),277102931,37.5425833,126.8088167
오정경찰서.부천옹기박물관,212000374,37.51385,126.8010667
오정경찰서.여월휴먼시아5단지,212000056,37.5118833,126.8000667
오정농협,212000026,37.5261833,126.8049833
오정농협,212000017,37.52615,126.8046667
오정동(경유),277101973,37.5318,126.7811
오정동경인OBS방송국,212000111,37.5301833,126.7872333
오정동경인OBS방송국,212000008,37.5297833,126.7862333
오정동주공아파트(마),212000433,37.5292,126.78585
오정동행정복지센터.대명초등학교,212000117,37.5271,126.7970833
오정동행정복지센터.대명초등학교,212000113,37.52665,126.7978
오정동행정복지센터.오정어울마당,212000084,37.5265,126.7968333
오정동행정복지센터.오정어울마당,212000114,37.528,126.7968833
오정동행정복지센터.오정어울마당,212000371,37.52745,126.7969667
오정동행정복지센터.오정어울마당,212000416,37.52655,126.7966333
오정산업단지,212000376,37.5294167,126.7802
오정산업단지.구내,212000369,37.5290667,126.77995
오정산업단지입구,212000381,37.5289,126.77915
오정산업단지입구,212000382,37.5287667,126.7791333
오정샛말주택단지,212000415,37.5338333,126.7849
오정샛말주택단지,212000414,37.5336833,126.7853667
오정시장.노동복지회관,212000131,37.5241833,126.7864833
오정어울마당,212000042,37.52795,126.7953333
오정초등학교,212000025,37.5275167,126.8067833
오정초등학교,212000018,37.5281333,126.8070167
오정휴먼시아(중),212000388,37.5319167,126.7838
오정휴먼시아(중),212000387,37.53205,126.7853
오정휴먼시아2단지,212000182,37.5317833,126.78725
오정휴먼시아3단지,212000179,37.5330833,126.79065
오정휴먼시아3단지,212000178,37.5330833,126.7910167
오정휴먼시아3단지,212000183,37.5322333,126.7873333
오케이산업,212000383,37.5338833,126.78255
오케이산업,212000377,37.5338,126.7829
옥길LH1단지,211000273,37.4714667,126.8169333
옥길LH1단지,211000272,37.4716167,126.81715
옥길단독1블럭,211000222,37.4700833,126.8200667
옥길단독1블럭,211000250,37.4700667,126.8197333
옥길단독2블럭.상업지역,211000169,37.46735,126.8226
옥길단독2블럭.상업지역,211000201,37.46755,126.8223667
옥길동마을회관,211000209,37.47445,126.8241
옥길동마을회관,211000094,37.4744667,126.8242167
옥길브리즈힐후문,211000092,37.46135,126.8201833
옥길중.버들초등학교,211000279,37.46365,126.8274667
온반도체,210000356,37.5117,126.78485
온반도체,210000347,37.5109167,126.7845333
온수공단입구,210000598,37.4914333,126.8154833
우남사거리,210000596,37.4888333,126.8132833
우남사거리,210000595,37.4890333,126.81325
욱일아파트,212000089,37.5313833,126.80535
욱일아파트,212000081,37.5309167,126.80555
웅진플레이도시.상동호수공원,210000494,37.5013833,126.74535
원미1동행정복지센터.원미어울마당,210000360,37.4973833,126.7859
원미1동행정복지센터.원미어울마당,210000558,37.4977833,126.7865167
원미1동행정복지센터.원미어울마당,210000557,37.4978333,126.7873667
원미1동행정복지센터.원미어울마당,210000343,37.4975167,126.7855667
원미경찰서,210000612,37.5018,126.77775
원미경찰서,210000613,37.5014667,126.7772333
원미경찰서(마을),210000580,37.5018167,126.7768333
원미고등학교,210000110,37.4974333,126.7817167
원미고등학교,210000238,37.4974,126.7815667
원미고등학교,210000615,37.4983,126.7830333
원미동우체국(마을),210000616,37.4953833,126.7850833
원미두산아파트,210000153,37.49545,126.7915333
원미두산아파트,210000137,37.4951333,126.79165
원미두산아파트후문,210000092,37.4950833,126.7954167
원미어울마당,210000610,37.4985,126.7829333
원미어울마당(마을),210000618,37.4961,126.7855333
원미지구대,210000559,37.4973833,126.79055
원미지구대,210000560,37.4972833,126.7900833
원미풍림시장.풍림아파트,210000604,37.4929667,126.7891667
원미풍림시장.풍림아파트,210000605,37.4927333,126.7899
원미풍림아파트,210000151,37.49045,126.7903
원미풍림아파트.사우촌,210000139,37.49025,126.7904167
원종2동주민센터.사회복지회관,212000312,37.5255833,126.7994
원종2동주민센터.사회복지회관,212000141,37.5253,126.79925
원종IC(중),212000385,37.5327667,126.8032167
원종IC(중),212000386,37.5321833,126.8015333
원종고등학교,212000239,37.5274167,126.7999333
원종고등학교,212000249,37.5270667,126.7997833
원종동금호어울림,212000251,37.5279,126.8039333
원종동금호어울림,212000237,37.5279667,126.8034833
원종사거리,212000027,37.5228667,126.8050167
원종사거리,212000016,37.5232,126.8046667
원종사거리.부천우리병원,212000418,37.5243667,126.8050167
원종종합시장,212000337,37.5198167,126.8055333
원종종합시장,212000336,37.5199167,126.8056
원종종합시장.성곡사거리,212000015,37.5202333,126.8046833
원종종합시장.성곡사거리,212000028,37.51925,126.80505
원종주공아파트,212000238,37.5277667,126.8020167
원종주공아파트,212000250,37.5275833,126.8018833
원종초등학교,212000260,37.5182833,126.8050167
원종하이트,212000200,37.5294167,126.8115
원종하이트,212000188,37.52945,126.81135
원천공원(경유),277102537,37.4886833,126.7460167
위브더스테이트5단지,210000010,37.4985,126.7777333
위브더스테이트9단지,210000571,37.4965333,126.7782667
유림빌라,212000197,37.5234167,126.8113333
유명하이마트,212000356,37.5247167,126.8246333
유명하이마트,212000357,37.5247833,126.8245
유한대학교,211000071,37.4878833,126.8198
유한대학교,211000072,37.48765,126.8201
은데미공원,212000196,37.5209167,126.8117667
은데미공원,212000193,37.5206667,126.8117333
은성아파트,210000423,37.4847667,126.8058833
은하마을.덕유마을,210000041,37.5079333,126.7652667
은하마을.덕유마을,210000291,37.5082333,126.7644667
은하마을.중흥마을,210000055,37.5056667,126.7691833
은하쌍용아파트,210000158,37.50435,126.768
은행단지,212000318,37.5230167,126.8199833
이마트타운옥길점,211000186,37.46075,126.81425
인지슈퍼,211000203,37.4714333,126.7975833
자동차매매단지,210000246,37.4888,126.74755
자동차매매단지,210000245,37.48905,126.7473667
자연생태박물관(경유),277102458,37.5058833,126.8144833
자유시장,211000103,37.4835333,126.7788833
자이.호반베르디움,211000291,37.4624667,126.81235
자이.호반베르디움,211000031,37.4632667,126.8119333
자이아파트,211000241,37.4816167,126.7565167
작동로터리,212000440,37.51835,126.81945
장말.문예사거리,210000489,37.4921167,126.7665167
장미공원,210509700,37.5167833,126.7897333
장미공원앞,210000581,37.5169,126.7899333
장미슈퍼,210000424,37.48425,126.8061167
전진아파트,211000045,37.4735667,126.7707
전진아파트,211000033,37.4733667,126.77065
정도아파트,212000326,37.5251,126.8214833
정도아파트,212000359,37.5249833,126.8213833
정명고(경유),277102366,37.4746833,126.7705
정명고.경기경영고,211000037,37.4755667,126.7740167
정명고.경기경영고,211000042,37.4755167,126.7741
정명고교후문,211000034,37.4757667,126.77045
정명고교후문,211000044,37.4756667,126.77055
정명공원,211000038,37.4763,126.77455
정명공원,211000041,37.4762833,126.7746667
정우슈퍼,211000165,37.4714833,126.7982667
제이드카운티1단지,211000274,37.46735,126.8248333
제이드카운티1단지,211000172,37.467,126.8249833
제이드카운티2단지.헤일라움,211000275,37.4659167,126.8273
제이드카운티2단지.헤일라움,211000185,37.4662,126.8272167
제일주유소,212000313,37.5257,126.77125
제일주유소,212000316,37.5251167,126.7701167
제일주유소,212000122,37.5258667,126.77
조공아파트,211000064,37.4789833,126.8041833
조공아파트,211000079,37.4788167,126.8040333
조마루사거리,210000530,37.4981333,126.7853333
조마루삼거리,210000154,37.4972333,126.792
조마루삼거리,210000136,37.4965333,126.7919833
종로약국,212000039,37.5177333,126.7699667
종로약국,212000036,37.5167833,126.7702833
종합운동장,210000094,37.5012,126.7968833
종합운동장,210000095,37.50285,126.7974167
주공1.뜨란채4단지,211000150,37.4700667,126.8005833
주공2.3단지,211000191,37.47395,126.8050167
주공2.3단지,211000192,37.4739333,126.80435
주공2.뜨란채4단지.소안초등학교,211000153,37.4732333,126.8036667
주공2단지.창영초등학교,211000154,37.4734667,126.8034333
주공뜨란채4단지,211000189,37.4719667,126.8039167
주공뜨란채4단지,211000188,37.4717667,126.8038
중4동행정복지센터.고용노동지청,210000329,37.5063833,126.76335
중4동행정복지센터.고용노동지청,210000042,37.5068333,126.7638167
중동IC(경유),277103184,37.5057667,126.7482667
중동IC(경유),277103185,37.5066667,126.748
중동IC진입(경유),277103186,37.5061,126.7496833
중동시장앞.넘말,210000051,37.4962,126.76525
중동시장앞.넘말,210000221,37.4958833,126.7652333
중동역,211000006,37.4847167,126.7638
중동역,210000224,37.4876167,126.7650167
중동역,211000099,37.4847,126.7642
중동역.부천여고,210000259,37.4882833,126.7627833
중동역.신한은행,210000547,37.4875833,126.7648167
중동행정복지센터.시민회관,210000367,37.48775,126.7693167
중앙공원.미리내마을,210000219,37.4998833,126.76855
중앙공원.미리내마을,210000053,37.4998333,126.7682333
중앙그린빌아파트,210000542,37.5021667,126.7939333
중앙그린빌아파트,210000543,37.50215,126.7940833
중앙병원입구.송내자이아파트,211000098,37.4831167,126.7578333
중앙병원입구.송내자이아파트,211000096,37.4833833,126.7575167
중원고.한라마을앞,210000147,37.5113,126.7625
중원고등학교,210900007,37.5141833,126.7610333
중원초교,210000068,37.5118,126.76485
중원초교,210000088,37.5122833,126.7646167
중흥고교,210000040,37.5075667,126.7679167
중흥고교,210000292,37.5076833,126.7687
중흥마을.은하마을,210000217,37.5063333,126.7695667
진달래공원,210000333,37.5094833,126.75525
진달래공원,210000145,37.5092333,126.7551833
진달래대우.라일락신성아파트,210000122,37.5105167,126.7539667
진달래대우.라일락신성아파트,210000123,37.5105167,126.75425
진달래마을.효성아파트,210000144,37.50885,126.7580167
진달래마을써미트빌,210000194,37.5082333,126.7534667
진산초등학교,166000614,37.5119667,126.7408333
진영고등학교,211000148,37.4734667,126.79205
진영고등학교,211000023,37.4738833,126.7921833
진영아파트,212000095,37.5278333,126.8219167
진영아파트,212000074,37.5283833,126.8218833
차병원,211000226,37.4865,126.8187833
천화사.심원고등학교,210000455,37.5040333,126.78135
천화사.심원고등학교,210000454,37.5039667,126.7811333
청구아파트,211000211,37.4685,126.8002
청구아파트,211000178,37.46875,126.80035
청실빌라,212000097,37.5256167,126.8197167
청실빌라,212000072,37.5256667,126.8199833
청암아파트,210000550,37.4875167,126.8139833
축협원미지점,210000152,37.4934,126.7910167
축협원미지점,210000138,37.4941333,126.7913833
춘의가구거리,210000077,37.5043833,126.7904167
춘의가구거리,210000080,37.5039333,126.7894833
춘의동차고지,210000134,37.5017167,126.79435
춘의동차고지,210000156,37.50175,126.7943167
춘의아파트,210000135,37.5009,126.7935833
춘의아파트,210000155,37.5005667,126.7932833
춘의역4번출구,210000174,37.50335,126.78625
춘의역5번출구,210000183,37.50355,126.7850667
춘의역6번출구,210000345,37.5046667,126.7866167
춘의역7번출구,210000358,37.5044167,126.7870333
춘의테크노파크단지앞,210000344,37.5002667,126.7861833
춘의테크노파크단지앞,210000359,37.49965,126.7864333
테크노파크4단지(경유),277102371,37.5166833,126.7647333
트레지움1단지.다니엘병원,210000058,37.5111,126.7700167
트레지움1단지.다니엘병원,210000065,37.51105,126.7696833
팰리스카운티.부천서초교입구,210000099,37.48835,126.7670333
팰리스카운티.부천서초교입구,210000368,37.48815,126.7664667
팰리스카운티.부천중학교,210000318,37.4921833,126.7680667
팰리스카운티.장말문예사거리,210000234,37.4926333,126.76645
팰리스카운티.장말문예사거리,210000554,37.49245,126.7662333
팰리스카운티.장말문예사거리,210000027,37.4924667,126.76775
팰리스카운티1단지,210000486,37.4912167,126.7663667
팰리스카운티정문,210000540,37.4892667,126.7656
팰리스카운티정문,210000541,37.4900667,126.7657333
폐기물소각장(경유),277102375,37.5204333,126.7673167
포도마을,210000167,37.5009167,126.75745
포도마을.보람마을,210000060,37.4995833,126.7593
포도마을.보람마을,210000063,37.4998333,126.7592167
포도마을사거리.현대백화점.이마트,210000488,37.5026833,126.7625833
풍림마을,210000231,37.49755,126.7474167
풍림아파트,211000176,37.4663167,126.8007667
풍림아파트.다문화가족지원센터,210000474,37.4916167,126.7907833
풍림아파트.다문화가족지원센터,210000437,37.49155,126.7905667
풍림아파트.산림욕장삼거리,210000091,37.4925333,126.7948
풍림아파트.산림욕장삼거리,210000261,37.49245,126.7951
하나마트,212000438,37.5185167,126.81635
하나마트,212000442,37.5186167,126.8171667
하나은행,211000113,37.4758167,126.7957167
하얀마을,210900004,37.49825,126.7566333
하얀마을,210000381,37.4992833,126.75635
하얀마을.백송마을,210000260,37.4990333,126.7515667
하얀마을.백송마을,210000256,37.49865,126.7518167
하이퍼마트,211000166,37.4704833,126.7982333
한국아파트,210000553,37.49715,126.7540167
한국아파트,210000586,37.4920333,126.81315
한국화장품연수원,212000034,37.5203167,126.7688167
한국화장품연수원,212000041,37.52005,126.7680167
한남빌라,212000352,37.5231,126.82055
한남빌라,212000321,37.5229667,126.8205833
한라마을.덕유마을,210000069,37.5095667,126.7643667
한라마을.덕유마을,210000087,37.5094,126.764
한신공용주차장,211000163,37.4733333,126.79825
한신시장입구,211000162,37.47505,126.7982333
한신아파트.KCC스위첸아파트,211000081,37.47515,126.79945
한아름마을.반달마을,210000085,37.4942667,126.7491667
한아름마을.반달마을,210000071,37.4940667,126.7499333
한아름마트,212000439,37.5184333,126.8176833
한아름마트,212000441,37.51855,126.8181833
한양슈퍼,211000068,37.4812833,126.8144167
한양슈퍼,211000075,37.4816667,126.8143167
한양아파트,210000119,37.4995667,126.7749
한양아파트,210000126,37.4994,126.7752333
한울빛도서관.복사초등학교,211000011,37.4668833,126.7980667
행복한마을.푸른마을,210000212,37.5016667,126.7524833
행복한마을.푸른마을.상일중학교,210000191,37.5017,126.7521167
현대맨션,211000224,37.4842333,126.8189
현대아파트,210000426,37.4844333,126.8020333
현대자동차학원,210000268,37.5087833,126.7803833
현대자동차학원,210000274,37.5090667,126.7801667
현대정형외과,211000251,37.483,126.8091167
호반베르디움.자이,211000140,37.4622333,126.8120833
홈플러스(경유),277102372,37.5033667,126.7540333
홈플러스상동점,210000251,37.50325,126.7548667
화정빌라.대한노인회,212000149,37.5221333,126.8009333
휴먼시아1단지,211000260,37.4773667,126.8125
휴먼시아1단지,211000261,37.4773167,126.8127833
휴먼시아1단지후문,212000394,37.5309167,126.7808
휴먼시아1단지후문,212000395,37.5307167,126.7805
휴먼시아3단지,212000378,37.5336167,126.7883
휴먼시아3단지,212000384,37.5337333,126.7882833
